{
  "restaurants": [
    {
      "_id": "60a66e9d55fa93687ff1f441",
      "name": "Mustafas Gemüsekebap",
      "city_id": 1,
      "latitude": "52.4939874",
      "longitude": "13.38583",
      "img": "https://lh5.googleusercontent.com/p/AF1QipOqCu4YrVDS976AjuZeliiSw8rPDk9FZAPAM6T8=w428-h240-k-no",
      "description": "Popular, hearty chicken kebabs with grilled veggies, doled out from a tiny kiosk."
    },
    {
      "_id": "60a66ffafe0e030e8cc875ec",
      "name": "Berliner Kaffeerösterei Ku'damm",
      "city_id": 1,
      "latitude": "52.5014841",
      "longitude": "13.3231001",
      "img": "https://lh5.googleusercontent.com/p/AF1QipNAwYm14B5SVUHn5DXqX0tfJYmnbSHXqXVgB3QC=w495-h240-k-no",
      "description": "Unsere Kaffeehäuser sind Orte, an denen all Ihre Sinne angesprochen werden."
    },
    {
      "_id": "60a67012fe0e030e8cc875ed",
      "name": "Restaurant Zur Waldesruh",
      "city_id": 2,
      "latitude": "51.4708264",
      "longitude": "7.5502504",
      "img": "https://lh5.googleusercontent.com/p/AF1QipMS1I_yHbAj6Y2vgdRzc9NpjY7H_QGQ9ZmYCRiq=w408-h268-k-no",
      "description": "Restaurant - Saal - Kegelbahn - Biergarten"
    },
    {
      "_id": "60a6705ffe0e030e8cc875ee",
      "name": "Bei Oma Kleinmann",
      "city_id": 3,
      "latitude": "50.9295329",
      "longitude": "6.9361604",
      "img": "https://lh5.googleusercontent.com/p/AF1QipO38CGk5WiJfhDbUjBwZbMclY4oS49V7oZ7dN2O=w408-h306-k-no",
      "description": "“Bei Oma Kleinmann” ist eine laute, alte Dame mit wildem Herzen, rustikal, saisonal und lecker."
    },
    {
      "_id": "60a67071fe0e030e8cc875ef",
      "name": "Zum Spätzle - schwäbischer Imbiss",
      "city_id": 4,
      "latitude": "53.5509726",
      "longitude": "9.9795226",
      "img": "https://lh5.googleusercontent.com/p/AF1QipNnsx5mEgPzR3-c7L_inbUyxS5GNzxHkqEp9kbT=w408-h274-k-no",
      "description": "\"Zum Spätzle\" - schwäbischer Imbiss"
    },
    {
      "_id": "60a67088fe0e030e8cc875f0",
      "name": "Gaststätte Zum Storch",
      "city_id": 5,
      "latitude": "50.109967",
      "longitude": "8.682416",
      "img": "https://lh5.googleusercontent.com/p/AF1QipOAyD_2Kakh0x8qpv96hAd2CwQ1lTvHQIFFLkVv=w408-h306-k-no",
      "description": "Wir begrüßen Sie auf der Webseite eines der ältesten Restaurants, direkt im Herzen von Frankfurt am Main."
    }
  ],

  "city": [
    { "id": 1, "name": "Berlin" },
    { "id": 2, "name": "Dortmund" }
  ]
}
